{
"type": "FeatureCollection",
"crs": { "type": "name", "properties": { "name": "urn:ogc:def:crs:OGC:1.3:CRS84" } },
"features": [
{ "type": "Feature", "properties": { "ATCOCode": "9100ADWICK", "CommonName": "Adwick Rail Station", "ShortCommonName": null, "LocalityName": "Adwick le Street", "StopType": "RLY", "Status": "active", "TIPLOC": "ADWICK" }, "geometry": { "type": "Point", "coordinates": [ -1.18035620719, 53.572320718589999 ] } },
{ "type": "Feature", "properties": { "ATCOCode": "9100APERLYB", "CommonName": "Apperley Bridge Rail Station", "ShortCommonName": null, "LocalityName": "Apperley Bridge", "StopType": "RLY", "Status": "active", "TIPLOC": "APERLYB" }, "geometry": { "type": "Point", "coordinates": [ -1.70582848003, 53.84174897167 ] } },
{ "type": "Feature", "properties": { "ATCOCode": "9100ARRAM", "CommonName": "Arram Rail Station", "ShortCommonName": null, "LocalityName": "Arram", "StopType": "RLY", "Status": "active", "TIPLOC": "ARRAM" }, "geometry": { "type": "Point", "coordinates": [ -0.42657005177, 53.88434367979 ] } },
{ "type": "Feature", "properties": { "ATCOCode": "9100BAILDON", "CommonName": "Baildon Rail Station", "ShortCommonName": null, "LocalityName": "Baildon", "StopType": "RLY", "Status": "active", "TIPLOC": "BAILDON" }, "geometry": { "type": "Point", "coordinates": [ -1.75363618902, 53.85022428912 ] } },
{ "type": "Feature", "properties": { "ATCOCode": "9100BATLEY", "CommonName": "Batley Rail Station", "ShortCommonName": null, "LocalityName": "Batley", "StopType": "RLY", "Status": "active", "TIPLOC": "BATLEY" }, "geometry": { "type": "Point", "coordinates": [ -1.6229524536, 53.709941340660002 ] } },
{ "type": "Feature", "properties": { "ATCOCode": "9100BEMPTON", "CommonName": "Bempton Rail Station", "ShortCommonName": null, "LocalityName": "Bempton", "StopType": "RLY", "Status": "active", "TIPLOC": "BEMPTON" }, "geometry": { "type": "Point", "coordinates": [ -0.18045676255, 54.127659353779997 ] } },
{ "type": "Feature", "properties": { "ATCOCode": "9100BERRYB", "CommonName": "Berry Brow Rail Station", "ShortCommonName": null, "LocalityName": "Berry Brow", "StopType": "RLY", "Status": "active", "TIPLOC": "BERRYB" }, "geometry": { "type": "Point", "coordinates": [ -1.7934320772, 53.621040701010003 ] } },
{ "type": "Feature", "properties": { "ATCOCode": "9100BEVERLY", "CommonName": "Beverley Rail Station", "ShortCommonName": null, "LocalityName": "Beverley", "StopType": "RLY", "Status": "active", "TIPLOC": "BEVERLY" }, "geometry": { "type": "Point", "coordinates": [ -0.42298004647, 53.842273509370003 ] } },
{ "type": "Feature", "properties": { "ATCOCode": "9100BKHLS", "CommonName": "Brockholes Rail Station", "ShortCommonName": null, "LocalityName": "Brockholes", "StopType": "RLY", "Status": "active", "TIPLOC": "BKHLS" }, "geometry": { "type": "Point", "coordinates": [ -1.76969121826, 53.596971805979997 ] } },
{ "type": "Feature", "properties": { "ATCOCode": "9100BLTNODR", "CommonName": "Bolton-Upon-Dearne Rail Station", "ShortCommonName": null, "LocalityName": "Bolton-upon-Dearne", "StopType": "RLY", "Status": "active", "TIPLOC": "BLTNODR" }, "geometry": { "type": "Point", "coordinates": [ -1.31154602347, 53.518946534770002 ] } },
{ "type": "Feature", "properties": { "ATCOCode": "9100BNGY", "CommonName": "Bingley Rail Station", "ShortCommonName": null, "LocalityName": "Bingley", "StopType": "RLY", "Status": "active", "TIPLOC": "BNGY" }, "geometry": { "type": "Point", "coordinates": [ -1.83732228587, 53.848614091960002 ] } },
{ "type": "Feature", "properties": { "ATCOCode": "9100BNRHYDN", "CommonName": "Ben Rhydding Rail Station", "ShortCommonName": null, "LocalityName": "Ben Rhydding", "StopType": "RLY", "Status": "active", "TIPLOC": "BNRHYDN" }, "geometry": { "type": "Point", "coordinates": [ -1.79743005659, 53.925714051889997 ] } },
{ "type": "Feature", "properties": { "ATCOCode": "9100BNSLY", "CommonName": "Barnsley Rail Station", "ShortCommonName": null, "LocalityName": "Barnsley", "StopType": "RLY", "Status": "active", "TIPLOC": "BNSLY" }, "geometry": { "type": "Point", "coordinates": [ -1.47716468299, 53.554300786799999 ] } },
{ "type": "Feature", "properties": { "ATCOCode": "9100BNTHAM", "CommonName": "Bentham Rail Station", "ShortCommonName": null, "LocalityName": "High Bentham", "StopType": "RLY", "Status": "active", "TIPLOC": "BNTHAM" }, "geometry": { "type": "Point", "coordinates": [ -2.51067615135, 54.115517279450003 ] } },
{ "type": "Feature", "properties": { "ATCOCode": "9100BRADFS", "CommonName": "Bradford Forster Square Rail Station", "ShortCommonName": null, "LocalityName": "Bradford", "StopType": "RLY", "Status": "active", "TIPLOC": "BRADFS" }, "geometry": { "type": "Point", "coordinates": [ -1.7529615389, 53.796924412689997 ] } },
{ "type": "Feature", "properties": { "ATCOCode": "9100BRADIN", "CommonName": "Bradford Interchange Rail Station", "ShortCommonName": null, "LocalityName": "Bradford", "StopType": "RLY", "Status": "active", "TIPLOC": "BRADIN" }, "geometry": { "type": "Point", "coordinates": [ -1.74959570123, 53.791075248699997 ] } },
{ "type": "Feature", "properties": { "ATCOCode": "9100BRDLNGT", "CommonName": "Bridlington Rail Station", "ShortCommonName": null, "LocalityName": "Bridlington", "StopType": "RLY", "Status": "active", "TIPLOC": "BRDLNGT" }, "geometry": { "type": "Point", "coordinates": [ -0.1987203099, 54.084131267079997 ] } },
{ "type": "Feature", "properties": { "ATCOCode": "9100BRFT", "CommonName": "Broomfleet Rail Station", "ShortCommonName": null, "LocalityName": "Broomfleet", "StopType": "RLY", "Status": "active", "TIPLOC": "BRFT" }, "geometry": { "type": "Point", "coordinates": [ -0.67182831364, 53.740208222429999 ] } },
{ "type": "Feature", "properties": { "ATCOCode": "9100BRHOUSE", "CommonName": "Brighouse Rail Station", "ShortCommonName": null, "LocalityName": "Brighouse", "StopType": "RLY", "Status": "active", "TIPLOC": "BRHOUSE" }, "geometry": { "type": "Point", "coordinates": [ -1.77943883658, 53.698197294830003 ] } },
{ "type": "Feature", "properties": { "ATCOCode": "9100BRLEYPK", "CommonName": "Burley Park Rail Station", "ShortCommonName": null, "LocalityName": "Burley", "StopType": "RLY", "Status": "active", "TIPLOC": "BRLEYPK" }, "geometry": { "type": "Point", "coordinates": [ -1.57776751798, 53.812030178599997 ] } },
{ "type": "Feature", "properties": { "ATCOCode": "9100BRMLYSR", "CommonName": "Bramley (West Yorks) Rail Station", "ShortCommonName": null, "LocalityName": "Bramley", "StopType": "RLY", "Status": "active", "TIPLOC": "BRMLYSR" }, "geometry": { "type": "Point", "coordinates": [ -1.63720617396, 53.805348732719999 ] } },
{ "type": "Feature", "properties": { "ATCOCode": "9100BROUGH", "CommonName": "Brough Rail Station", "ShortCommonName": null, "LocalityName": "Brough", "StopType": "RLY", "Status": "active", "TIPLOC": "BROUGH" }, "geometry": { "type": "Point", "coordinates": [ -0.57872415332, 53.72696040996 ] } },
{ "type": "Feature", "properties": { "ATCOCode": "9100BTLYSY", "CommonName": "Bentley (S Yorks) Rail Station", "ShortCommonName": null, "LocalityName": "Bentley", "StopType": "RLY", "Status": "active", "TIPLOC": "BTLYSY" }, "geometry": { "type": "Point", "coordinates": [ -1.15094847577, 53.54393639696 ] } },
{ "type": "Feature", "properties": { "ATCOCode": "9100BTRSBY", "CommonName": "Battersby Rail Station", "ShortCommonName": null, "LocalityName": "Battersby", "StopType": "RLY", "Status": "active", "TIPLOC": "BTRSBY" }, "geometry": { "type": "Point", "coordinates": [ -1.09297174857, 54.457679995329997 ] } },
{ "type": "Feature", "properties": { "ATCOCode": "9100BURLYIW", "CommonName": "Burley-in-Wharfedale Rail Station", "ShortCommonName": null, "LocalityName": "Burley-in-Wharfedale", "StopType": "RLY", "Status": "active", "TIPLOC": "BURLYIW" }, "geometry": { "type": "Point", "coordinates": [ -1.75337191602, 53.90815048748 ] } },
{ "type": "Feature", "properties": { "ATCOCode": "9100CASTLFD", "CommonName": "Castleford Rail Station", "ShortCommonName": null, "LocalityName": "Castleford", "StopType": "RLY", "Status": "active", "TIPLOC": "CASTLFD" }, "geometry": { "type": "Point", "coordinates": [ -1.35465259492, 53.72407721634 ] } },
{ "type": "Feature", "properties": { "ATCOCode": "9100CATTAL", "CommonName": "Cattal Rail Station", "ShortCommonName": null, "LocalityName": "Cattal", "StopType": "RLY", "Status": "active", "TIPLOC": "CATTAL" }, "geometry": { "type": "Point", "coordinates": [ -1.32053499843, 53.997440048260003 ] } },
{ "type": "Feature", "properties": { "ATCOCode": "9100CFLATTS", "CommonName": "Crossflatts Rail Station", "ShortCommonName": null, "LocalityName": "Crossflatts", "StopType": "RLY", "Status": "active", "TIPLOC": "CFLATTS" }, "geometry": { "type": "Point", "coordinates": [ -1.84488597753, 53.85846581989 ] } },
{ "type": "Feature", "properties": { "ATCOCode": "9100CHFN", "CommonName": "Church Fenton Rail Station", "ShortCommonName": null, "LocalityName": "Church Fenton", "StopType": "RLY", "Status": "active", "TIPLOC": "CHFN" }, "geometry": { "type": "Point", "coordinates": [ -1.22758877221, 53.826600635429998 ] } },
{ "type": "Feature", "properties": { "ATCOCode": "9100CHPLTWN", "CommonName": "Chapeltown Rail Station", "ShortCommonName": null, "LocalityName": "Chapeltown", "StopType": "RLY", "Status": "active", "TIPLOC": "CHPLTWN" }, "geometry": { "type": "Point", "coordinates": [ -1.4662752287, 53.462336252669999 ] } },
{ "type": "Feature", "properties": { "ATCOCode": "9100CLPM", "CommonName": "Clapham (N Yorks) Rail Station", "ShortCommonName": null, "LocalityName": "Clapham", "StopType": "RLY", "Status": "active", "TIPLOC": "CLPM" }, "geometry": { "type": "Point", "coordinates": [ -2.41037593925, 54.105385808009999 ] } },
{ "type": "Feature", "properties": { "ATCOCode": "9100COMONDL", "CommonName": "Commondale Rail Station", "ShortCommonName": null, "LocalityName": "Commondale", "StopType": "RLY", "Status": "active", "TIPLOC": "COMONDL" }, "geometry": { "type": "Point", "coordinates": [ -0.97514791514, 54.481274098370001 ] } },
{ "type": "Feature", "properties": { "ATCOCode": "9100CONBRGH", "CommonName": "Conisbrough Rail Station", "ShortCommonName": null, "LocalityName": "Conisbrough", "StopType": "RLY", "Status": "active", "TIPLOC": "CONBRGH" }, "geometry": { "type": "Point", "coordinates": [ -1.23433137958, 53.489309039959998 ] } },
{ "type": "Feature", "properties": { "ATCOCode": "9100CONONLY", "CommonName": "Cononley Rail Station", "ShortCommonName": null, "LocalityName": "Cononley", "StopType": "RLY", "Status": "active", "TIPLOC": "CONONLY" }, "geometry": { "type": "Point", "coordinates": [ -2.0120676459, 53.917570115709999 ] } },
{ "type": "Feature", "properties": { "ATCOCode": "9100COTNGLY", "CommonName": "Cottingley Rail Station", "ShortCommonName": null, "LocalityName": "Cottingley", "StopType": "RLY", "Status": "active", "TIPLOC": "COTNGLY" }, "geometry": { "type": "Point", "coordinates": [ -1.58770804242, 53.767816631350001 ] } },
{ "type": "Feature", "properties": { "ATCOCode": "9100CSGT", "CommonName": "Cross Gates Rail Station", "ShortCommonName": null, "LocalityName": "Cross Gates", "StopType": "RLY", "Status": "active", "TIPLOC": "CSGT" }, "geometry": { "type": "Point", "coordinates": [ -1.4515803316, 53.804913667549997 ] } },
{ "type": "Feature", "properties": { "ATCOCode": "9100CTNM", "CommonName": "Castleton Moor Rail Station", "ShortCommonName": null, "LocalityName": "Castleton", "StopType": "RLY", "Status": "active", "TIPLOC": "CTNM" }, "geometry": { "type": "Point", "coordinates": [ -0.94664829988, 54.467143591750002 ] } },
{ "type": "Feature", "properties": { "ATCOCode": "9100CTTGHM", "CommonName": "Cottingham Rail Station", "ShortCommonName": null, "LocalityName": "Cottingham", "StopType": "RLY", "Status": "active", "TIPLOC": "CTTGHM" }, "geometry": { "type": "Point", "coordinates": [ -0.40643390293, 53.781648922599999 ] } },
{ "type": "Feature", "properties": { "ATCOCode": "9100DANBY", "CommonName": "Danby Rail Station", "ShortCommonName": null, "LocalityName": "Danby", "StopType": "RLY", "Status": "active", "TIPLOC": "DANBY" }, "geometry": { "type": "Point", "coordinates": [ -0.91095574944, 54.466153254129999 ] } },
{ "type": "Feature", "properties": { "ATCOCode": "9100DARNALL", "CommonName": "Darnall Rail Station", "ShortCommonName": null, "LocalityName": "Darnall", "StopType": "RLY", "Status": "active", "TIPLOC": "DARNALL" }, "geometry": { "type": "Point", "coordinates": [ -1.41256706782, 53.384584199819997 ] } },
{ "type": "Feature", "properties": { "ATCOCode": "9100DEIGHTN", "CommonName": "Deighton Rail Station", "ShortCommonName": null, "LocalityName": "Deighton", "StopType": "RLY", "Status": "active", "TIPLOC": "DEIGHTN" }, "geometry": { "type": "Point", "coordinates": [ -1.75189639415, 53.668482577939997 ] } },
{ "type": "Feature", "properties": { "ATCOCode": "9100DENT", "CommonName": "Dent Rail Station", "ShortCommonName": null, "LocalityName": "Dent", "StopType": "RLY", "Status": "active", "TIPLOC": "DENT" }, "geometry": { "type": "Point", "coordinates": [ -2.36359856953, 54.282408655769999 ] } },
{ "type": "Feature", "properties": { "ATCOCode": "9100DNDL", "CommonName": "Denby Dale Rail Station", "ShortCommonName": null, "LocalityName": "Denby Dale", "StopType": "RLY", "Status": "active", "TIPLOC": "DNDL" }, "geometry": { "type": "Point", "coordinates": [ -1.66321034051, 53.57263103204 ] } },
{ "type": "Feature", "properties": { "ATCOCode": "9100DODWRTH", "CommonName": "Dodworth Rail Station", "ShortCommonName": null, "LocalityName": "Dodworth", "StopType": "RLY", "Status": "active", "TIPLOC": "DODWRTH" }, "geometry": { "type": "Point", "coordinates": [ -1.53169071566, 53.544324726079999 ] } },
{ "type": "Feature", "properties": { "ATCOCode": "9100DONC", "CommonName": "Doncaster Rail Station", "ShortCommonName": null, "LocalityName": "Doncaster", "StopType": "RLY", "Status": "active", "TIPLOC": "DONC" }, "geometry": { "type": "Point", "coordinates": [ -1.13984520717, 53.522149484160003 ] } },
{ "type": "Feature", "properties": { "ATCOCode": "9100DRIFILD", "CommonName": "Driffield Rail Station", "ShortCommonName": null, "LocalityName": "Driffield", "StopType": "RLY", "Status": "active", "TIPLOC": "DRIFILD" }, "geometry": { "type": "Point", "coordinates": [ -0.43466492953, 54.001528154740001 ] } },
{ "type": "Feature", "properties": { "ATCOCode": "9100DRTN", "CommonName": "Darton Rail Station", "ShortCommonName": null, "LocalityName": "Darton", "StopType": "RLY", "Status": "active", "TIPLOC": "DRTN" }, "geometry": { "type": "Point", "coordinates": [ -1.53165740985, 53.588367719479997 ] } },
{ "type": "Feature", "properties": { "ATCOCode": "9100DWBY", "CommonName": "Dewsbury Rail Station", "ShortCommonName": null, "LocalityName": "Dewsbury", "StopType": "RLY", "Status": "active", "TIPLOC": "DWBY" }, "geometry": { "type": "Point", "coordinates": [ -1.63310637589, 53.692131352319997 ] } },
{ "type": "Feature", "properties": { "ATCOCode": "9100EGRFRTH", "CommonName": "East Garforth Rail Station", "ShortCommonName": null, "LocalityName": "East Garforth", "StopType": "RLY", "Status": "active", "TIPLOC": "EGRFRTH" }, "geometry": { "type": "Point", "coordinates": [ -1.37053681811, 53.791977471419997 ] } },
{ "type": "Feature", "properties": { "ATCOCode": "9100EGTON", "CommonName": "Egton Rail Station", "ShortCommonName": null, "LocalityName": "Egton", "StopType": "RLY", "Status": "active", "TIPLOC": "EGTON" }, "geometry": { "type": "Point", "coordinates": [ -0.76146487581, 54.43748142362 ] } },
{ "type": "Feature", "properties": { "ATCOCode": "9100ELSC", "CommonName": "Elsecar Rail Station", "ShortCommonName": null, "LocalityName": "Elsecar", "StopType": "RLY", "Status": "active", "TIPLOC": "ELSC" }, "geometry": { "type": "Point", "coordinates": [ -1.4274237643, 53.498659047940002 ] } },
{ "type": "Feature", "properties": { "ATCOCode": "9100ESTRNGT", "CommonName": "Eastrington Rail Station", "ShortCommonName": null, "LocalityName": "Eastrington", "StopType": "RLY", "Status": "active", "TIPLOC": "ESTRNGT" }, "geometry": { "type": "Point", "coordinates": [ -0.78763031919, 53.755161093669997 ] } },
{ "type": "Feature", "properties": { "ATCOCode": "9100FERRIBY", "CommonName": "Ferriby Rail Station", "ShortCommonName": null, "LocalityName": "North Ferriby", "StopType": "RLY", "Status": "active", "TIPLOC": "FERRIBY" }, "geometry": { "type": "Point", "coordinates": [ -0.50783039182, 53.717154584820001 ] } },
{ "type": "Feature", "properties": { "ATCOCode": "9100FILEY", "CommonName": "Filey Rail Station", "ShortCommonName": null, "LocalityName": "Filey", "StopType": "RLY", "Status": "active", "TIPLOC": "FILEY" }, "geometry": { "type": "Point", "coordinates": [ -0.29384931799, 54.209858318759998 ] } },
{ "type": "Feature", "properties": { "ATCOCode": "9100FITZWLM", "CommonName": "Fitzwilliam Rail Station", "ShortCommonName": null, "LocalityName": "Fitzwilliam", "StopType": "RLY", "Status": "active", "TIPLOC": "FITZWLM" }, "geometry": { "type": "Point", "coordinates": [ -1.37427302168, 53.632500628499997 ] } },
{ "type": "Feature", "properties": { "ATCOCode": "9100FRZNGHL", "CommonName": "Frizinghall Rail Station", "ShortCommonName": null, "LocalityName": "Frizinghall", "StopType": "RLY", "Status": "active", "TIPLOC": "FRZNGHL" }, "geometry": { "type": "Point", "coordinates": [ -1.7690010559, 53.820369980300001 ] } },
{ "type": "Feature", "properties": { "ATCOCode": "9100FTHRSTN", "CommonName": "Featherstone Rail Station", "ShortCommonName": null, "LocalityName": "Featherstone", "StopType": "RLY", "Status": "active", "TIPLOC": "FTHRSTN" }, "geometry": { "type": "Point", "coordinates": [ -1.35844410227, 53.679066344580001 ] } },
{ "type": "Feature", "properties": { "ATCOCode": "9100GARFRTH", "CommonName": "Garforth Rail Station", "ShortCommonName": null, "LocalityName": "Garforth", "StopType": "RLY", "Status": "active", "TIPLOC": "GARFRTH" }, "geometry": { "type": "Point", "coordinates": [ -1.38230956433, 53.796577661459999 ] } },
{ "type": "Feature", "properties": { "ATCOCode": "9100GARSDLE", "CommonName": "Garsdale Rail Station", "ShortCommonName": null, "LocalityName": "Garsdale", "StopType": "RLY", "Status": "active", "TIPLOC": "GARSDLE" }, "geometry": { "type": "Point", "coordinates": [ -2.32635352287, 54.321430034190001 ] } },
{ "type": "Feature", "properties": { "ATCOCode": "9100GFLD", "CommonName": "Greenfield Rail Station", "ShortCommonName": null, "LocalityName": "Greenfield", "StopType": "RLY", "Status": "active", "TIPLOC": "GFLD" }, "geometry": { "type": "Point", "coordinates": [ -2.01384345258, 53.53885800946 ] } },
{ "type": "Feature", "properties": { "ATCOCode": "9100GGLSWCK", "CommonName": "Giggleswick Rail Station", "ShortCommonName": null, "LocalityName": "Giggleswick", "StopType": "RLY", "Status": "active", "TIPLOC": "GGLSWCK" }, "geometry": { "type": "Point", "coordinates": [ -2.30284770779, 54.061800405189999 ] } },
{ "type": "Feature", "properties": { "ATCOCode": "9100GLAISDL", "CommonName": "Glaisdale Rail Station", "ShortCommonName": null, "LocalityName": "Glaisdale", "StopType": "RLY", "Status": "active", "TIPLOC": "GLAISDL" }, "geometry": { "type": "Point", "coordinates": [ -0.79378774076, 54.439381235890004 ] } },
{ "type": "Feature", "properties": { "ATCOCode": "9100GLASHTN", "CommonName": "Glasshoughton Rail Station", "ShortCommonName": null, "LocalityName": "Glasshoughton", "StopType": "RLY", "Status": "active", "TIPLOC": "GLASHTN" }, "geometry": { "type": "Point", "coordinates": [ -1.34200506295, 53.70904301993 ] } },
{ "type": "Feature", "properties": { "ATCOCode": "9100GLBRDYK", "CommonName": "Gilberdyke Rail Station", "ShortCommonName": null, "LocalityName": "Gilberdyke", "StopType": "RLY", "Status": "active", "TIPLOC": "GLBRDYK" }, "geometry": { "type": "Point", "coordinates": [ -0.7322433585, 53.747963516680002 ] } },
{ "type": "Feature", "properties": { "ATCOCode": "9100GLDTHRP", "CommonName": "Goldthorpe Rail Station", "ShortCommonName": null, "LocalityName": "Goldthorpe", "StopType": "RLY", "Status": "active", "TIPLOC": "GLDTHRP" }, "geometry": { "type": "Point", "coordinates": [ -1.312807649, 53.534189388270001 ] } },
{ "type": "Feature", "properties": { "ATCOCode": "9100GOOLE", "CommonName": "Goole Rail Station", "ShortCommonName": null, "LocalityName": "Goole", "StopType": "RLY", "Status": "active", "TIPLOC": "GOOLE" }, "geometry": { "type": "Point", "coordinates": [ -0.87421340957, 53.704914336969999 ] } },
{ "type": "Feature", "properties": { "ATCOCode": "9100GRGRAVE", "CommonName": "Gargrave Rail Station", "ShortCommonName": null, "LocalityName": "Gargrave", "StopType": "RLY", "Status": "active", "TIPLOC": "GRGRAVE" }, "geometry": { "type": "Point", "coordinates": [ -2.10517037708, 53.978416360559997 ] } },
{ "type": "Feature", "properties": { "ATCOCode": "9100GROSMNT", "CommonName": "Grosmont Rail Station", "ShortCommonName": null, "LocalityName": "Grosmont", "StopType": "RLY", "Status": "active", "TIPLOC": "GROSMNT" }, "geometry": { "type": "Point", "coordinates": [ -0.72496556309, 54.43611314903 ] } },
{ "type": "Feature", "properties": { "ATCOCode": "9100GTAYTON", "CommonName": "Great Ayton Rail Station", "ShortCommonName": null, "LocalityName": "Great Ayton", "StopType": "RLY", "Status": "active", "TIPLOC": "GTAYTON" }, "geometry": { "type": "Point", "coordinates": [ -1.11534518304, 54.489570918509997 ] } },
{ "type": "Feature", "properties": { "ATCOCode": "9100GUISELY", "CommonName": "Guiseley Rail Station", "ShortCommonName": null, "LocalityName": "Guiseley", "StopType": "RLY", "Status": "active", "TIPLOC": "GUISELY" }, "geometry": { "type": "Point", "coordinates": [ -1.7150799004, 53.87593426958 ] } },
{ "type": "Feature", "properties": { "ATCOCode": "9100GYPSYLA", "CommonName": "Gypsy Lane Rail Station", "ShortCommonName": null, "LocalityName": "Nunthorpe", "StopType": "RLY", "Status": "active", "TIPLOC": "GYPSYLA" }, "geometry": { "type": "Point", "coordinates": [ -1.17939203378, 54.532891334699997 ] } },
{ "type": "Feature", "properties": { "ATCOCode": "9100HAGT", "CommonName": "Harrogate Rail Station", "ShortCommonName": null, "LocalityName": "Harrogate", "StopType": "RLY", "Status": "active", "TIPLOC": "HAGT" }, "geometry": { "type": "Point", "coordinates": [ -1.53760775475, 53.99317682929 ] } },
{ "type": "Feature", "properties": { "ATCOCode": "9100HAMERTN", "CommonName": "Hammerton Rail Station", "ShortCommonName": null, "LocalityName": "Kirk Hammerton", "StopType": "RLY", "Status": "active", "TIPLOC": "HAMERTN" }, "geometry": { "type": "Point", "coordinates": [ -1.28409555422, 53.996329832139999 ] } },
{ "type": "Feature", "properties": { "ATCOCode": "9100HBDNBDG", "CommonName": "Hebden Bridge Rail Station", "ShortCommonName": null, "LocalityName": "Hebden Bridge", "StopType": "RLY", "Status": "active", "TIPLOC": "HBDNBDG" }, "geometry": { "type": "Point", "coordinates": [ -2.00905870724, 53.737587489649997 ] } },
{ "type": "Feature", "properties": { "ATCOCode": "9100HDRSFLD", "CommonName": "Huddersfield Rail Station", "ShortCommonName": null, "LocalityName": "Huddersfield", "StopType": "RLY", "Status": "active", "TIPLOC": "HDRSFLD" }, "geometry": { "type": "Point", "coordinates": [ -1.78469019439, 53.648502302879997 ] } },
{ "type": "Feature", "properties": { "ATCOCode": "9100HEDNGLY", "CommonName": "Headingley Rail Station", "ShortCommonName": null, "LocalityName": "Headingley", "StopType": "RLY", "Status": "active", "TIPLOC": "HEDNGLY" }, "geometry": { "type": "Point", "coordinates": [ -1.59418800379, 53.817973957180001 ] } },
{ "type": "Feature", "properties": { "ATCOCode": "9100HELIFLD", "CommonName": "Hellifield Rail Station", "ShortCommonName": null, "LocalityName": "Hellifield", "StopType": "RLY", "Status": "active", "TIPLOC": "HELIFLD" }, "geometry": { "type": "Point", "coordinates": [ -2.22784461222, 54.010862419650003 ] } },
{ "type": "Feature", "properties": { "ATCOCode": "9100HENSALL", "CommonName": "Hensall Rail Station", "ShortCommonName": null, "LocalityName": "Hensall", "StopType": "RLY", "Status": "active", "TIPLOC": "HENSALL" }, "geometry": { "type": "Point", "coordinates": [ -1.11451863276, 53.698544811719998 ] } },
{ "type": "Feature", "properties": { "ATCOCode": "9100HESSLE", "CommonName": "Hessle Rail Station", "ShortCommonName": null, "LocalityName": "Hessle", "StopType": "RLY", "Status": "active", "TIPLOC": "HESSLE" }, "geometry": { "type": "Point", "coordinates": [ -0.44182312114, 53.717438010949998 ] } },
{ "type": "Feature", "properties": { "ATCOCode": "9100HLFX", "CommonName": "Halifax Rail Station", "ShortCommonName": null, "LocalityName": "Halifax", "StopType": "RLY", "Status": "active", "TIPLOC": "HLFX" }, "geometry": { "type": "Point", "coordinates": [ -1.8535747171, 53.720960685629997 ] } },
{ "type": "Feature", "properties": { "ATCOCode": "9100HONLEY", "CommonName": "Honley Rail Station", "ShortCommonName": null, "LocalityName": "Honley", "StopType": "RLY", "Status": "active", "TIPLOC": "HONLEY" }, "geometry": { "type": "Point", "coordinates": [ -1.78096529913, 53.608228284059997 ] } },
{ "type": "Feature", "properties": { "ATCOCode": "9100HOWDEN", "CommonName": "Howden Rail Station", "ShortCommonName": null, "LocalityName": "Howden", "StopType": "RLY", "Status": "active", "TIPLOC": "HOWDEN" }, "geometry": { "type": "Point", "coordinates": [ -0.86046300282, 53.764711233100002 ] } },
{ "type": "Feature", "properties": { "ATCOCode": "9100HRNBPK", "CommonName": "Hornbeam Park Rail Station", "ShortCommonName": null, "LocalityName": "Oatlands", "StopType": "RLY", "Status": "active", "TIPLOC": "HRNBPK" }, "geometry": { "type": "Point", "coordinates": [ -1.52682225005, 53.979868937100001 ] } },
{ "type": "Feature", "properties": { "ATCOCode": "9100HSFT", "CommonName": "Horsforth Rail Station", "ShortCommonName": null, "LocalityName": "Horsforth", "StopType": "RLY", "Status": "active", "TIPLOC": "HSFT" }, "geometry": { "type": "Point", "coordinates": [ -1.63022836562, 53.847705708299998 ] } },
{ "type": "Feature", "properties": { "ATCOCode": "9100HTFLASF", "CommonName": "Hatfield & Stainforth Rail Station", "ShortCommonName": null, "LocalityName": "Stainforth", "StopType": "RLY", "Status": "active", "TIPLOC": "HTFLASF" }, "geometry": { "type": "Point", "coordinates": [ -1.02337723201, 53.58871533488 ] } },
{ "type": "Feature", "properties": { "ATCOCode": "9100HTNCRNS", "CommonName": "Hutton Cranswick Rail Station", "ShortCommonName": null, "LocalityName": "Hutton Cranswick", "StopType": "RLY", "Status": "active", "TIPLOC": "HTNCRNS" }, "geometry": { "type": "Point", "coordinates": [ -0.433861512, 53.955855018279998 ] } },
{ "type": "Feature", "properties": { "ATCOCode": "9100HTNRIBL", "CommonName": "Horton-in-Ribblesdale Rail Station", "ShortCommonName": null, "LocalityName": "Horton in Ribblesdale", "StopType": "RLY", "Status": "active", "TIPLOC": "HTNRIBL" }, "geometry": { "type": "Point", "coordinates": [ -2.30203267063, 54.149385938409999 ] } },
{ "type": "Feature", "properties": { "ATCOCode": "9100HULL", "CommonName": "Hull Rail Station", "ShortCommonName": null, "LocalityName": "Hull", "StopType": "RLY", "Status": "active", "TIPLOC": "HULL" }, "geometry": { "type": "Point", "coordinates": [ -0.34567995259, 53.744150394259997 ] } },
{ "type": "Feature", "properties": { "ATCOCode": "9100HUNMNBY", "CommonName": "Hunmanby Rail Station", "ShortCommonName": null, "LocalityName": "Hunmanby", "StopType": "RLY", "Status": "active", "TIPLOC": "HUNMNBY" }, "geometry": { "type": "Point", "coordinates": [ -0.31455674165, 54.17392577175 ] } },
{ "type": "Feature", "properties": { "ATCOCode": "9100ILKLEY", "CommonName": "Ilkley Rail Station", "ShortCommonName": null, "LocalityName": "Ilkley", "StopType": "RLY", "Status": "active", "TIPLOC": "ILKLEY" }, "geometry": { "type": "Point", "coordinates": [ -1.82202748953, 53.92476430955 ] } },
{ "type": "Feature", "properties": { "ATCOCode": "9100JAMCOK", "CommonName": "James Cook Rail Station", "ShortCommonName": null, "LocalityName": "James Cook Hospital", "StopType": "RLY", "Status": "active", "TIPLOC": "JAMCOK" }, "geometry": { "type": "Point", "coordinates": [ -1.2085693492, 54.552030533749999 ] } },
{ "type": "Feature", "properties": { "ATCOCode": "9100KEIGHLY", "CommonName": "Keighley Rail Station", "ShortCommonName": null, "LocalityName": "Keighley", "StopType": "RLY", "Status": "active", "TIPLOC": "KEIGHLY" }, "geometry": { "type": "Point", "coordinates": [ -1.90164947462, 53.867962888889998 ] } },
{ "type": "Feature", "properties": { "ATCOCode": "9100KKSNDAL", "CommonName": "Kirk Sandall Rail Station", "ShortCommonName": null, "LocalityName": "Kirk Sandall", "StopType": "RLY", "Status": "active", "TIPLOC": "KKSNDAL" }, "geometry": { "type": "Point", "coordinates": [ -1.07406102661, 53.563878111450002 ] } },
{ "type": "Feature", "properties": { "ATCOCode": "9100KLDL", "CommonName": "Kildale Rail Station", "ShortCommonName": null, "LocalityName": "Kildale", "StopType": "RLY", "Status": "active", "TIPLOC": "KLDL" }, "geometry": { "type": "Point", "coordinates": [ -1.0681434228, 54.47775758313 ] } },
{ "type": "Feature", "properties": { "ATCOCode": "9100KNRSBGH", "CommonName": "Knaresborough Rail Station", "ShortCommonName": null, "LocalityName": "Knaresborough", "StopType": "RLY", "Status": "active", "TIPLOC": "KNRSBGH" }, "geometry": { "type": "Point", "coordinates": [ -1.47041615856, 54.009023765370003 ] } },
{ "type": "Feature", "properties": { "ATCOCode": "9100KNTNGLY", "CommonName": "Knottingley Rail Station", "ShortCommonName": null, "LocalityName": "Knottingley", "StopType": "RLY", "Status": "active", "TIPLOC": "KNTNGLY" }, "geometry": { "type": "Point", "coordinates": [ -1.25917814668, 53.706537315790001 ] } },
{ "type": "Feature", "properties": { "ATCOCode": "9100KRKSLFR", "CommonName": "Kirkstall Forge Rail Station", "ShortCommonName": null, "LocalityName": "Hawksworth", "StopType": "RLY", "Status": "active", "TIPLOC": "KRKSLFR" }, "geometry": { "type": "Point", "coordinates": [ -1.62247926932, 53.823719704399998 ] } },
{ "type": "Feature", "properties": { "ATCOCode": "9100KVTNBDG", "CommonName": "Kiveton Bridge Rail Station", "ShortCommonName": null, "LocalityName": "Kiveton Park", "StopType": "RLY", "Status": "active", "TIPLOC": "KVTNBDG" }, "geometry": { "type": "Point", "coordinates": [ -1.26717935845, 53.340957885409999 ] } },
{ "type": "Feature", "properties": { "ATCOCode": "9100KVTNPK", "CommonName": "Kiveton Park Rail Station", "ShortCommonName": null, "LocalityName": "Kiveton Park", "StopType": "RLY", "Status": "active", "TIPLOC": "KVTNPK" }, "geometry": { "type": "Point", "coordinates": [ -1.23984450125, 53.336714992109997 ] } },
{ "type": "Feature", "properties": { "ATCOCode": "9100LEALHLM", "CommonName": "Lealholm Rail Station", "ShortCommonName": null, "LocalityName": "Lealholm", "StopType": "RLY", "Status": "active", "TIPLOC": "LEALHLM" }, "geometry": { "type": "Point", "coordinates": [ -0.82571525103, 54.460591845960003 ] } },
{ "type": "Feature", "properties": { "ATCOCode": "9100LEEDS", "CommonName": "Leeds Rail Station", "ShortCommonName": null, "LocalityName": "Leeds", "StopType": "RLY", "Status": "active", "TIPLOC": "LEEDS" }, "geometry": { "type": "Point", "coordinates": [ -1.54802550674, 53.795626564990002 ] } },
{ "type": "Feature", "properties": { "ATCOCode": "9100LKWD", "CommonName": "Lockwood Rail Station", "ShortCommonName": null, "LocalityName": "Lockwood", "StopType": "RLY", "Status": "active", "TIPLOC": "LKWD" }, "geometry": { "type": "Point", "coordinates": [ -1.80079074226, 53.634733239859997 ] } },
{ "type": "Feature", "properties": { "ATCOCode": "9100LONGBCK", "CommonName": "Longbeck Rail Station", "ShortCommonName": null, "LocalityName": "Redcar", "StopType": "RLY", "Status": "active", "TIPLOC": "LONGBCK" }, "geometry": { "type": "Point", "coordinates": [ -1.03047285909, 54.589218072839998 ] } },
{ "type": "Feature", "properties": { "ATCOCode": "9100LOWMOOR", "CommonName": "Low Moor Rail Station", "ShortCommonName": null, "LocalityName": "Low Moor", "StopType": "RLY", "Status": "active", "TIPLOC": "LOWMOOR" }, "geometry": { "type": "Point", "coordinates": [ -1.75340384946, 53.749926983290003 ] } },
{ "type": "Feature", "properties": { "ATCOCode": "9100LPRESTN", "CommonName": "Long Preston Rail Station", "ShortCommonName": null, "LocalityName": "Long Preston", "StopType": "RLY", "Status": "active", "TIPLOC": "LPRESTN" }, "geometry": { "type": "Point", "coordinates": [ -2.25559197103, 54.016837288719998 ] } },
{ "type": "Feature", "properties": { "ATCOCode": "9100MALTON", "CommonName": "Malton Rail Station", "ShortCommonName": null, "LocalityName": "Malton", "StopType": "RLY", "Status": "active", "TIPLOC": "MALTON" }, "geometry": { "type": "Point", "coordinates": [ -0.79722203887, 54.132075948679997 ] } },
{ "type": "Feature", "properties": { "ATCOCode": "9100MARTON", "CommonName": "Marton Rail Station", "ShortCommonName": null, "LocalityName": "Ormesby", "StopType": "RLY", "Status": "active", "TIPLOC": "MARTON" }, "geometry": { "type": "Point", "coordinates": [ -1.19848487439, 54.5443430961 ] } },
{ "type": "Feature", "properties": { "ATCOCode": "9100MCKLFLD", "CommonName": "Micklefield Rail Station", "ShortCommonName": null, "LocalityName": "Micklefield", "StopType": "RLY", "Status": "active", "TIPLOC": "MCKLFLD" }, "geometry": { "type": "Point", "coordinates": [ -1.32679307059, 53.788836806120003 ] } },
{ "type": "Feature", "properties": { "ATCOCode": "9100MEADWHL", "CommonName": "Meadowhall Rail Station", "ShortCommonName": null, "LocalityName": "Meadowhall", "StopType": "RLY", "Status": "active", "TIPLOC": "MEADWHL" }, "geometry": { "type": "Point", "coordinates": [ -1.41285146834, 53.417466228800002 ] } },
{ "type": "Feature", "properties": { "ATCOCode": "9100MENSTON", "CommonName": "Menston Rail Station", "ShortCommonName": null, "LocalityName": "Menston", "StopType": "RLY", "Status": "active", "TIPLOC": "MENSTON" }, "geometry": { "type": "Point", "coordinates": [ -1.73551004176, 53.892338872259998 ] } },
{ "type": "Feature", "properties": { "ATCOCode": "9100MEXBRGH", "CommonName": "Mexborough Rail Station", "ShortCommonName": null, "LocalityName": "Mexborough", "StopType": "RLY", "Status": "active", "TIPLOC": "MEXBRGH" }, "geometry": { "type": "Point", "coordinates": [ -1.28856130714, 53.490992310919999 ] } },
{ "type": "Feature", "properties": { "ATCOCode": "9100MIRFILD", "CommonName": "Mirfield Rail Station", "ShortCommonName": null, "LocalityName": "Mirfield", "StopType": "RLY", "Status": "active", "TIPLOC": "MIRFILD" }, "geometry": { "type": "Point", "coordinates": [ -1.69254502706, 53.671401029770003 ] } },
{ "type": "Feature", "properties": { "ATCOCode": "9100MORTHRP", "CommonName": "Moorthorpe Rail Station", "ShortCommonName": null, "LocalityName": "Moorthorpe", "StopType": "RLY", "Status": "active", "TIPLOC": "MORTHRP" }, "geometry": { "type": "Point", "coordinates": [ -1.30494699382, 53.594996128200002 ] } },
{ "type": "Feature", "properties": { "ATCOCode": "9100MRLY", "CommonName": "Morley Rail Station", "ShortCommonName": null, "LocalityName": "Morley", "StopType": "RLY", "Status": "active", "TIPLOC": "MRLY" }, "geometry": { "type": "Point", "coordinates": [ -1.59097671114, 53.749923560340001 ] } },
{ "type": "Feature", "properties": { "ATCOCode": "9100MRSK", "CommonName": "Marske Rail Station", "ShortCommonName": null, "LocalityName": "Marske", "StopType": "RLY", "Status": "active", "TIPLOC": "MRSK" }, "geometry": { "type": "Point", "coordinates": [ -1.01890967475, 54.587417356670002 ] } },
{ "type": "Feature", "properties": { "ATCOCode": "9100MRSN", "CommonName": "Marsden Rail Station", "ShortCommonName": null, "LocalityName": "Marsden", "StopType": "RLY", "Status": "active", "TIPLOC": "MRSN" }, "geometry": { "type": "Point", "coordinates": [ -1.93074978354, 53.6031861791 ] } },
{ "type": "Feature", "properties": { "ATCOCode": "9100MYTHLMR", "CommonName": "Mytholmroyd Rail Station", "ShortCommonName": null, "LocalityName": "Mytholmroyd", "StopType": "RLY", "Status": "active", "TIPLOC": "MYTHLMR" }, "geometry": { "type": "Point", "coordinates": [ -1.98142575446, 53.729002863310001 ] } },
{ "type": "Feature", "properties": { "ATCOCode": "9100NAFERTN", "CommonName": "Nafferton Rail Station", "ShortCommonName": null, "LocalityName": "Nafferton", "StopType": "RLY", "Status": "active", "TIPLOC": "NAFERTN" }, "geometry": { "type": "Point", "coordinates": [ -0.38607599699, 54.011222623359998 ] } },
{ "type": "Feature", "properties": { "ATCOCode": "9100NLRTN", "CommonName": "Northallerton Rail Station", "ShortCommonName": null, "LocalityName": "Northallerton", "StopType": "RLY", "Status": "active", "TIPLOC": "NLRTN" }, "geometry": { "type": "Point", "coordinates": [ -1.4412729874, 54.33307201361 ] } },
{ "type": "Feature", "properties": { "ATCOCode": "9100NORMNTN", "CommonName": "Normanton Rail Station", "ShortCommonName": null, "LocalityName": "Normanton", "StopType": "RLY", "Status": "active", "TIPLOC": "NORMNTN" }, "geometry": { "type": "Point", "coordinates": [ -1.42340130968, 53.700518923559997 ] } },
{ "type": "Feature", "properties": { "ATCOCode": "9100NPUD", "CommonName": "New Pudsey Rail Station", "ShortCommonName": null, "LocalityName": "Pudsey", "StopType": "RLY", "Status": "active", "TIPLOC": "NPUD" }, "geometry": { "type": "Point", "coordinates": [ -1.68079230061, 53.80448387493 ] } },
{ "type": "Feature", "properties": { "ATCOCode": "9100NUNTHRP", "CommonName": "Nunthorpe Rail Station", "ShortCommonName": null, "LocalityName": "Nunthorpe", "StopType": "RLY", "Status": "active", "TIPLOC": "NUNTHRP" }, "geometry": { "type": "Point", "coordinates": [ -1.1694487981, 54.527880552390002 ] } },
{ "type": "Feature", "properties": { "ATCOCode": "9100OUTWOOD", "CommonName": "Outwood Rail Station", "ShortCommonName": null, "LocalityName": "Outwood", "StopType": "RLY", "Status": "active", "TIPLOC": "OUTWOOD" }, "geometry": { "type": "Point", "coordinates": [ -1.51040024805, 53.715286965840001 ] } },
{ "type": "Feature", "properties": { "ATCOCode": "9100PANNAL", "CommonName": "Pannal Rail Station", "ShortCommonName": null, "LocalityName": "Pannal", "StopType": "RLY", "Status": "active", "TIPLOC": "PANNAL" }, "geometry": { "type": "Point", "coordinates": [ -1.53346695743, 53.958324209799997 ] } },
{ "type": "Feature", "properties": { "ATCOCode": "9100PENISTN", "CommonName": "Penistone Rail Station", "ShortCommonName": null, "LocalityName": "Penistone", "StopType": "RLY", "Status": "active", "TIPLOC": "PENISTN" }, "geometry": { "type": "Point", "coordinates": [ -1.62278070263, 53.525546148670003 ] } },
{ "type": "Feature", "properties": { "ATCOCode": "9100POPLTON", "CommonName": "Poppleton Rail Station", "ShortCommonName": null, "LocalityName": "Poppleton", "StopType": "RLY", "Status": "active", "TIPLOC": "POPLTON" }, "geometry": { "type": "Point", "coordinates": [ -1.14859660402, 53.975897852199999 ] } },
{ "type": "Feature", "properties": { "ATCOCode": "9100PTFTBHL", "CommonName": "Pontefract Baghill Rail Station", "ShortCommonName": null, "LocalityName": "Pontefract", "StopType": "RLY", "Status": "active", "TIPLOC": "PTFTBHL" }, "geometry": { "type": "Point", "coordinates": [ -1.30335277828, 53.691881647430002 ] } },
{ "type": "Feature", "properties": { "ATCOCode": "9100PTFTMHL", "CommonName": "Pontefract Monkhill Rail Station", "ShortCommonName": null, "LocalityName": "Pontefract", "StopType": "RLY", "Status": "active", "TIPLOC": "PTFTMHL" }, "geometry": { "type": "Point", "coordinates": [ -1.30368993226, 53.698984369549997 ] } },
{ "type": "Feature", "properties": { "ATCOCode": "9100PTFTTSF", "CommonName": "Pontefract Tanshelf Rail Station", "ShortCommonName": null, "LocalityName": "Pontefract", "StopType": "RLY", "Status": "active", "TIPLOC": "PTFTTSF" }, "geometry": { "type": "Point", "coordinates": [ -1.318914751, 53.694128298419997 ] } },
{ "type": "Feature", "properties": { "ATCOCode": "9100RAWCLIF", "CommonName": "Rawcliffe Rail Station", "ShortCommonName": null, "LocalityName": "Rawcliffe", "StopType": "RLY", "Status": "active", "TIPLOC": "RAWCLIF" }, "geometry": { "type": "Point", "coordinates": [ -0.96086312528, 53.689041319689998 ] } },
{ "type": "Feature", "properties": { "ATCOCode": "9100REDCARC", "CommonName": "Redcar Central Rail Station", "ShortCommonName": null, "LocalityName": "Redcar", "StopType": "RLY", "Status": "active", "TIPLOC": "REDCARC" }, "geometry": { "type": "Point", "coordinates": [ -1.07086756207, 54.616226589859998 ] } },
{ "type": "Feature", "properties": { "ATCOCode": "9100REDCARE", "CommonName": "Redcar East Rail Station", "ShortCommonName": null, "LocalityName": "Redcar", "StopType": "RLY", "Status": "active", "TIPLOC": "REDCARE" }, "geometry": { "type": "Point", "coordinates": [ -1.0522921733, 54.609252441419997 ] } },
{ "type": "Feature", "properties": { "ATCOCode": "9100REDCBSC", "CommonName": "British Steel Redcar Rail Station", "ShortCommonName": null, "LocalityName": "Redcar", "StopType": "RLY", "Status": "active", "TIPLOC": "REDCBSC" }, "geometry": { "type": "Point", "coordinates": [ -1.11266116496, 54.609889551750001 ] } },
{ "type": "Feature", "properties": { "ATCOCode": "9100RIBLHED", "CommonName": "Ribblehead Rail Station", "ShortCommonName": null, "LocalityName": "Chapel-le-Dale", "StopType": "RLY", "Status": "active", "TIPLOC": "RIBLHED" }, "geometry": { "type": "Point", "coordinates": [ -2.36085578685, 54.205844766189998 ] } },
{ "type": "Feature", "properties": { "ATCOCode": "9100ROTHCEN", "CommonName": "Rotherham Central Rail Station", "ShortCommonName": null, "LocalityName": "Rotherham", "StopType": "RLY", "Status": "active", "TIPLOC": "ROTHCEN" }, "geometry": { "type": "Point", "coordinates": [ -1.36043453053, 53.432253191740003 ] } },
{ "type": "Feature", "properties": { "ATCOCode": "9100RTHP", "CommonName": "Ravensthorpe Rail Station", "ShortCommonName": null, "LocalityName": "Ravensthorpe", "StopType": "RLY", "Status": "active", "TIPLOC": "RTHP" }, "geometry": { "type": "Point", "coordinates": [ -1.6555788333, 53.67552495783 ] } },
{ "type": "Feature", "properties": { "ATCOCode": "9100RUSWARP", "CommonName": "Ruswarp Rail Station", "ShortCommonName": null, "LocalityName": "Ruswarp", "StopType": "RLY", "Status": "active", "TIPLOC": "RUSWARP" }, "geometry": { "type": "Point", "coordinates": [ -0.62777165095, 54.470190734779997 ] } },
{ "type": "Feature", "properties": { "ATCOCode": "9100SABR", "CommonName": "Sandal & Agbrigg Rail Station", "ShortCommonName": null, "LocalityName": "Sandal", "StopType": "RLY", "Status": "active", "TIPLOC": "SABR" }, "geometry": { "type": "Point", "coordinates": [ -1.48141937718, 53.663078322620002 ] } },
{ "type": "Feature", "properties": { "ATCOCode": "9100SAIR", "CommonName": "Saltaire Rail Station", "ShortCommonName": null, "LocalityName": "Saltaire", "StopType": "RLY", "Status": "active", "TIPLOC": "SAIR" }, "geometry": { "type": "Point", "coordinates": [ -1.79048041033, 53.838493075780001 ] } },
{ "type": "Feature", "properties": { "ATCOCode": "9100SBRN", "CommonName": "Saltburn Rail Station", "ShortCommonName": null, "LocalityName": "Saltburn", "StopType": "RLY", "Status": "active", "TIPLOC": "SBRN" }, "geometry": { "type": "Point", "coordinates": [ -0.97413289196, 54.583451323479999 ] } },
{ "type": "Feature", "properties": { "ATCOCode": "9100SCARBRO", "CommonName": "Scarborough Rail Station", "ShortCommonName": null, "LocalityName": "Scarborough", "StopType": "RLY", "Status": "active", "TIPLOC": "SCARBRO" }, "geometry": { "type": "Point", "coordinates": [ -0.40570298296, 54.27979186041 ] } },
{ "type": "Feature", "properties": { "ATCOCode": "9100SEAMER", "CommonName": "Seamer Rail Station", "ShortCommonName": null, "LocalityName": "Seamer", "StopType": "RLY", "Status": "active", "TIPLOC": "SEAMER" }, "geometry": { "type": "Point", "coordinates": [ -0.41702976384, 54.240751889560002 ] } },
{ "type": "Feature", "properties": { "ATCOCode": "9100SELBY", "CommonName": "Selby Rail Station", "ShortCommonName": null, "LocalityName": "Selby", "StopType": "RLY", "Status": "active", "TIPLOC": "SELBY" }, "geometry": { "type": "Point", "coordinates": [ -1.06378590029, 53.782784963810002 ] } },
{ "type": "Feature", "properties": { "ATCOCode": "9100SELMSAL", "CommonName": "South Elmsall Rail Station", "ShortCommonName": null, "LocalityName": "South Elmsall", "StopType": "RLY", "Status": "active", "TIPLOC": "SELMSAL" }, "geometry": { "type": "Point", "coordinates": [ -1.28485824285, 53.594608145190001 ] } },
{ "type": "Feature", "properties": { "ATCOCode": "9100SETTLE", "CommonName": "Settle Rail Station", "ShortCommonName": null, "LocalityName": "Settle", "StopType": "RLY", "Status": "active", "TIPLOC": "SETTLE" }, "geometry": { "type": "Point", "coordinates": [ -2.28071401529, 54.066914151699997 ] } },
{ "type": "Feature", "properties": { "ATCOCode": "9100SHBN", "CommonName": "Sherburn-in-Elmet Rail Station", "ShortCommonName": null, "LocalityName": "Sherburn in Elmet", "StopType": "RLY", "Status": "active", "TIPLOC": "SHBN" }, "geometry": { "type": "Point", "coordinates": [ -1.23268439004, 53.79715210498 ] } },
{ "type": "Feature", "properties": { "ATCOCode": "9100SHEFFLD", "CommonName": "Sheffield Rail Station", "ShortCommonName": null, "LocalityName": "Sheffield", "StopType": "RLY", "Status": "active", "TIPLOC": "SHEFFLD" }, "geometry": { "type": "Point", "coordinates": [ -1.46211083296, 53.378219872899997 ] } },
{ "type": "Feature", "properties": { "ATCOCode": "9100SHPY", "CommonName": "Shipley Rail Station", "ShortCommonName": null, "LocalityName": "Shipley", "StopType": "RLY", "Status": "active", "TIPLOC": "SHPY" }, "geometry": { "type": "Point", "coordinates": [ -1.77348970942, 53.833051514380003 ] } },
{ "type": "Feature", "properties": { "ATCOCode": "9100SKPT", "CommonName": "Skipton Rail Station", "ShortCommonName": null, "LocalityName": "Skipton", "StopType": "RLY", "Status": "active", "TIPLOC": "SKPT" }, "geometry": { "type": "Point", "coordinates": [ -2.02587206385, 53.958686831839998 ] } },
{ "type": "Feature", "properties": { "ATCOCode": "9100SKSCMN", "CommonName": "Silkstone Common Rail Station", "ShortCommonName": null, "LocalityName": "Silkstone Common", "StopType": "RLY", "Status": "active", "TIPLOC": "SKSCMN" }, "geometry": { "type": "Point", "coordinates": [ -1.56347853949, 53.534917177 ] } },
{ "type": "Feature", "properties": { "ATCOCode": "9100SLEGHTS", "CommonName": "Sleights Rail Station", "ShortCommonName": null, "LocalityName": "Sleights", "StopType": "RLY", "Status": "active", "TIPLOC": "SLEGHTS" }, "geometry": { "type": "Point", "coordinates": [ -0.66248076241, 54.461052769760002 ] } },
{ "type": "Feature", "properties": { "ATCOCode": "9100SLTHWTE", "CommonName": "Slaithwaite Rail Station", "ShortCommonName": null, "LocalityName": "Slaithwaite", "StopType": "RLY", "Status": "active", "TIPLOC": "SLTHWTE" }, "geometry": { "type": "Point", "coordinates": [ -1.88157868142, 53.623829670820001 ] } },
{ "type": "Feature", "properties": { "ATCOCode": "9100SLTMRSH", "CommonName": "Saltmarshe Rail Station", "ShortCommonName": null, "LocalityName": "Saltmarshe", "StopType": "RLY", "Status": "active", "TIPLOC": "SLTMRSH" }, "geometry": { "type": "Point", "coordinates": [ -0.80948561866, 53.721924454579998 ] } },
{ "type": "Feature", "properties": { "ATCOCode": "9100SMILFD", "CommonName": "South Milford Rail Station", "ShortCommonName": null, "LocalityName": "South Milford", "StopType": "RLY", "Status": "active", "TIPLOC": "SMILFD" }, "geometry": { "type": "Point", "coordinates": [ -1.25052921973, 53.782326527579997 ] } },
{ "type": "Feature", "properties": { "ATCOCode": "9100SNAITH", "CommonName": "Snaith Rail Station", "ShortCommonName": null, "LocalityName": "Snaith", "StopType": "RLY", "Status": "active", "TIPLOC": "SNAITH" }, "geometry": { "type": "Point", "coordinates": [ -1.02845972511, 53.693114049720002 ] } },
{ "type": "Feature", "properties": { "ATCOCode": "9100SPLY", "CommonName": "Shepley Rail Station", "ShortCommonName": null, "LocalityName": "Shepley", "StopType": "RLY", "Status": "active", "TIPLOC": "SPLY" }, "geometry": { "type": "Point", "coordinates": [ -1.70492806467, 53.588740312890003 ] } },
{ "type": "Feature", "properties": { "ATCOCode": "9100STARBCK", "CommonName": "Starbeck Rail Station", "ShortCommonName": null, "LocalityName": "Starbeck", "StopType": "RLY", "Status": "active", "TIPLOC": "STARBCK" }, "geometry": { "type": "Point", "coordinates": [ -1.50112962988, 53.998998917089999 ] } },
{ "type": "Feature", "properties": { "ATCOCode": "9100STEETON", "CommonName": "Steeton & Silsden Rail Station", "ShortCommonName": null, "LocalityName": "Steeton", "StopType": "RLY", "Status": "active", "TIPLOC": "STEETON" }, "geometry": { "type": "Point", "coordinates": [ -1.94471953227, 53.900031958390002 ] } },
{ "type": "Feature", "properties": { "ATCOCode": "9100STHBANK", "CommonName": "South Bank Rail Station", "ShortCommonName": null, "LocalityName": "South Bank", "StopType": "RLY", "Status": "active", "TIPLOC": "STHBANK" }, "geometry": { "type": "Point", "coordinates": [ -1.17666693461, 54.583829765959997 ] } },
{ "type": "Feature", "properties": { "ATCOCode": "9100STHS", "CommonName": "Streethouse Rail Station", "ShortCommonName": null, "LocalityName": "Streethouse", "StopType": "RLY", "Status": "active", "TIPLOC": "STHS" }, "geometry": { "type": "Point", "coordinates": [ -1.40011838392, 53.676154308039997 ] } },
{ "type": "Feature", "properties": { "ATCOCode": "9100STKSMR", "CommonName": "Stocksmoor Rail Station", "ShortCommonName": null, "LocalityName": "Stocksmoor", "StopType": "RLY", "Status": "active", "TIPLOC": "STKSMR" }, "geometry": { "type": "Point", "coordinates": [ -1.72324784737, 53.594087141940001 ] } },
{ "type": "Feature", "properties": { "ATCOCode": "9100SWINTN", "CommonName": "Swinton (South Yorks) Rail Station", "ShortCommonName": null, "LocalityName": "Swinton", "StopType": "RLY", "Status": "active", "TIPLOC": "SWINTN" }, "geometry": { "type": "Point", "coordinates": [ -1.30582124974, 53.486239909810003 ] } },
{ "type": "Feature", "properties": { "ATCOCode": "9100SWRBBDG", "CommonName": "Sowerby Bridge Rail Station", "ShortCommonName": null, "LocalityName": "Sowerby Bridge", "StopType": "RLY", "Status": "active", "TIPLOC": "SWRBBDG" }, "geometry": { "type": "Point", "coordinates": [ -1.90702152097, 53.707846413920002 ] } },
{ "type": "Feature", "properties": { "ATCOCode": "9100TABY", "CommonName": "Thornaby Rail Station", "ShortCommonName": null, "LocalityName": "Thornaby", "StopType": "RLY", "Status": "active", "TIPLOC": "TABY" }, "geometry": { "type": "Point", "coordinates": [ -1.30141193572, 54.559270400400003 ] } },
{ "type": "Feature", "properties": { "ATCOCode": "9100THIRSK", "CommonName": "Thirsk Rail Station", "ShortCommonName": null, "LocalityName": "Thirsk", "StopType": "RLY", "Status": "active", "TIPLOC": "THIRSK" }, "geometry": { "type": "Point", "coordinates": [ -1.37258799738, 54.228211142120003 ] } },
{ "type": "Feature", "properties": { "ATCOCode": "9100THORNEN", "CommonName": "Thorne North Rail Station", "ShortCommonName": null, "LocalityName": "Thorne", "StopType": "RLY", "Status": "active", "TIPLOC": "THORNEN" }, "geometry": { "type": "Point", "coordinates": [ -0.97233073469, 53.616062893810003 ] } },
{ "type": "Feature", "properties": { "ATCOCode": "9100THORNES", "CommonName": "Thorne South Rail Station", "ShortCommonName": null, "LocalityName": "Thorne", "StopType": "RLY", "Status": "active", "TIPLOC": "THORNES" }, "geometry": { "type": "Point", "coordinates": [ -0.95510916042, 53.60332966272 ] } },
{ "type": "Feature", "properties": { "ATCOCode": "9100TODMRDN", "CommonName": "Todmorden Rail Station", "ShortCommonName": null, "LocalityName": "Todmorden", "StopType": "RLY", "Status": "active", "TIPLOC": "TODMRDN" }, "geometry": { "type": "Point", "coordinates": [ -2.09965916654, 53.713817700820002 ] } },
{ "type": "Feature", "properties": { "ATCOCode": "9100TRNO", "CommonName": "Thurnscoe Rail Station", "ShortCommonName": null, "LocalityName": "Thurnscoe", "StopType": "RLY", "Status": "active", "TIPLOC": "TRNO" }, "geometry": { "type": "Point", "coordinates": [ -1.30878362182, 53.545042333689999 ] } },
{ "type": "Feature", "properties": { "ATCOCode": "9100ULESKLF", "CommonName": "Ulleskelf Rail Station", "ShortCommonName": null, "LocalityName": "Ulleskelf", "StopType": "RLY", "Status": "active", "TIPLOC": "ULESKLF" }, "geometry": { "type": "Point", "coordinates": [ -1.21397205119, 53.853611483149997 ] } },
{ "type": "Feature", "properties": { "ATCOCode": "9100WDHOUSE", "CommonName": "Woodhouse Rail Station", "ShortCommonName": null, "LocalityName": "Woodhouse", "StopType": "RLY", "Status": "active", "TIPLOC": "WDHOUSE" }, "geometry": { "type": "Point", "coordinates": [ -1.35755342307, 53.363743675089999 ] } },
{ "type": "Feature", "properties": { "ATCOCode": "9100WDLESFD", "CommonName": "Woodlesford Rail Station", "ShortCommonName": null, "LocalityName": "Woodlesford", "StopType": "RLY", "Status": "active", "TIPLOC": "WDLESFD" }, "geometry": { "type": "Point", "coordinates": [ -1.44287939209, 53.756787207949998 ] } },
{ "type": "Feature", "properties": { "ATCOCode": "9100WEETON", "CommonName": "Weeton Rail Station", "ShortCommonName": null, "LocalityName": "Weeton", "StopType": "RLY", "Status": "active", "TIPLOC": "WEETON" }, "geometry": { "type": "Point", "coordinates": [ -1.5812156072, 53.923177918889998 ] } },
{ "type": "Feature", "properties": { "ATCOCode": "9100WHTBDGE", "CommonName": "Whitley Bridge Rail Station", "ShortCommonName": null, "LocalityName": "Whitley Bridge", "StopType": "RLY", "Status": "active", "TIPLOC": "WHTBDGE" }, "geometry": { "type": "Point", "coordinates": [ -1.15828029663, 53.699129849110001 ] } },
{ "type": "Feature", "properties": { "ATCOCode": "9100WKFLDKG", "CommonName": "Wakefield Kirkgate Rail Station", "ShortCommonName": null, "LocalityName": "Wakefield", "StopType": "RLY", "Status": "active", "TIPLOC": "WKFLDKG" }, "geometry": { "type": "Point", "coordinates": [ -1.48857054232, 53.678658738419998 ] } },
{ "type": "Feature", "properties": { "ATCOCode": "9100WKFLDWG", "CommonName": "Wakefield Westgate Rail Station", "ShortCommonName": null, "LocalityName": "Wakefield", "StopType": "RLY", "Status": "active", "TIPLOC": "WKFLDWG" }, "geometry": { "type": "Point", "coordinates": [ -1.50611044926, 53.683073626270001 ] } },
{ "type": "Feature", "properties": { "ATCOCode": "9100WOMBWEL", "CommonName": "Wombwell Rail Station", "ShortCommonName": null, "LocalityName": "Wombwell", "StopType": "RLY", "Status": "active", "TIPLOC": "WOMBWEL" }, "geometry": { "type": "Point", "coordinates": [ -1.41616248315, 53.517345683990001 ] } },
{ "type": "Feature", "properties": { "ATCOCode": "9100WRESSLE", "CommonName": "Wressle Rail Station", "ShortCommonName": null, "LocalityName": "Wressle", "StopType": "RLY", "Status": "active", "TIPLOC": "WRESSLE" }, "geometry": { "type": "Point", "coordinates": [ -0.92434900615, 53.772923595439998 ] } },
{ "type": "Feature", "properties": { "ATCOCode": "9100WTBY", "CommonName": "Whitby Rail Station", "ShortCommonName": null, "LocalityName": "Whitby", "StopType": "RLY", "Status": "active", "TIPLOC": "WTBY" }, "geometry": { "type": "Point", "coordinates": [ -0.61540285118, 54.484609896370003 ] } },
{ "type": "Feature", "properties": { "ATCOCode": "9100YAAM", "CommonName": "Yarm Rail Station", "ShortCommonName": null, "LocalityName": "Yarm", "StopType": "RLY", "Status": "active", "TIPLOC": "YAAM" }, "geometry": { "type": "Point", "coordinates": [ -1.35154502838, 54.493898965850001 ] } },
{ "type": "Feature", "properties": { "ATCOCode": "9100YORK", "CommonName": "York Rail Station", "ShortCommonName": null, "LocalityName": "York", "StopType": "RLY", "Status": "active", "TIPLOC": "YORK" }, "geometry": { "type": "Point", "coordinates": [ -1.09318208959, 53.957965883749999 ] } },
{ "type": "Feature", "properties": { "ATCOCode": "9300HUL", "CommonName": "Hull Ferry Terminal", "ShortCommonName": null, "LocalityName": "Myton", "StopType": "FER", "Status": "active", "TIPLOC": "HUL" }, "geometry": { "type": "Point", "coordinates": [ -0.27381672145, 53.743766116339998 ] } },
{ "type": "Feature", "properties": { "ATCOCode": "9400ZZEBBAB", "CommonName": "Bolton Abbey (Embsay & Bolton Abbey Railway)", "ShortCommonName": null, "LocalityName": "Bolton Abbey", "StopType": "MET", "Status": "active", "TIPLOC": "EBBAB" }, "geometry": { "type": "Point", "coordinates": [ -1.90793582146, 53.97636037793 ] } },
{ "type": "Feature", "properties": { "ATCOCode": "9400ZZEBEMB", "CommonName": "Embsay (Embsay & Bolton Abbey Railway)", "ShortCommonName": null, "LocalityName": "Embsay", "StopType": "MET", "Status": "active", "TIPLOC": "EBEMB" }, "geometry": { "type": "Point", "coordinates": [ -1.99168526302, 53.975604254940002 ] } },
{ "type": "Feature", "properties": { "ATCOCode": "9400ZZKWDMM", "CommonName": "Damems (Keighley & Worth Valley Railway)", "ShortCommonName": null, "LocalityName": "Hainworth", "StopType": "MET", "Status": "active", "TIPLOC": "KWDMM" }, "geometry": { "type": "Point", "coordinates": [ -1.92434762413, 53.845959015230001 ] } },
{ "type": "Feature", "properties": { "ATCOCode": "9400ZZKWHAW", "CommonName": "Haworth (Keighley & Worth Valley Railway)", "ShortCommonName": null, "LocalityName": "Haworth", "StopType": "MET", "Status": "active", "TIPLOC": "KWHAW" }, "geometry": { "type": "Point", "coordinates": [ -1.94888166753, 53.831231774019997 ] } },
{ "type": "Feature", "properties": { "ATCOCode": "9400ZZKWIGN", "CommonName": "Ingrow West (Keighley & Worth Valley Railway)", "ShortCommonName": null, "LocalityName": "Ingrow", "StopType": "MET", "Status": "active", "TIPLOC": "KWIGN" }, "geometry": { "type": "Point", "coordinates": [ -1.91498437665, 53.853772222430003 ] } },
{ "type": "Feature", "properties": { "ATCOCode": "9400ZZKWOAK", "CommonName": "Oakworth (Keighley & Worth Valley Railway)", "ShortCommonName": null, "LocalityName": "Oakworth", "StopType": "MET", "Status": "active", "TIPLOC": "KWOAK" }, "geometry": { "type": "Point", "coordinates": [ -1.94183299757, 53.84133996469 ] } },
{ "type": "Feature", "properties": { "ATCOCode": "9400ZZKWOXH", "CommonName": "Oxenhope (Keighley & Worth Valley Railway)", "ShortCommonName": null, "LocalityName": "Oxenhope", "StopType": "MET", "Status": "active", "TIPLOC": "KWOXH" }, "geometry": { "type": "Point", "coordinates": [ -1.95250103831, 53.814839291710001 ] } },
{ "type": "Feature", "properties": { "ATCOCode": "9400ZZNYGTH", "CommonName": "Goathland (North Yorkshire Moors Railway)", "ShortCommonName": null, "LocalityName": "Goathland", "StopType": "MET", "Status": "active", "TIPLOC": "NYGTH" }, "geometry": { "type": "Point", "coordinates": [ -0.71209421883, 54.400627809429999 ] } },
{ "type": "Feature", "properties": { "ATCOCode": "9400ZZNYLEV", "CommonName": "Levisham (North Yorkshire Moors Railway)", "ShortCommonName": null, "LocalityName": "Levisham", "StopType": "MET", "Status": "active", "TIPLOC": "NYLEV" }, "geometry": { "type": "Point", "coordinates": [ -0.74419219005, 54.307950984750001 ] } },
{ "type": "Feature", "properties": { "ATCOCode": "9400ZZNYPCK", "CommonName": "Pickering (North Yorkshire Moors Railway)", "ShortCommonName": null, "LocalityName": "Pickering", "StopType": "MET", "Status": "active", "TIPLOC": "NYPCK" }, "geometry": { "type": "Point", "coordinates": [ -0.77860818403, 54.247096837569998 ] } },
{ "type": "Feature", "properties": { "ATCOCode": "9400ZZSYABR", "CommonName": "Arbourthorne Road (South Yorkshire Supertram)", "ShortCommonName": null, "LocalityName": "Norfolk Park", "StopType": "MET", "Status": "active", "TIPLOC": "SYABR" }, "geometry": { "type": "Point", "coordinates": [ -1.44800637632, 53.36342300978 ] } },
{ "type": "Feature", "properties": { "ATCOCode": "9400ZZSYATT", "CommonName": "Attercliffe (South Yorkshire Supertram)", "ShortCommonName": null, "LocalityName": "Attercliffe", "StopType": "MET", "Status": "active", "TIPLOC": "SYATT" }, "geometry": { "type": "Point", "coordinates": [ -1.42997928935, 53.392299971690001 ] } },
{ "type": "Feature", "properties": { "ATCOCode": "9400ZZSYBAM", "CommonName": "Bamforth Street (South Yorkshire Supertram)", "ShortCommonName": null, "LocalityName": "Langsett Road", "StopType": "MET", "Status": "active", "TIPLOC": "SYBAM" }, "geometry": { "type": "Point", "coordinates": [ -1.49257608911, 53.398892303270003 ] } },
{ "type": "Feature", "properties": { "ATCOCode": "9400ZZSYCAS", "CommonName": "Castle Square (South Yorkshire Supertram)", "ShortCommonName": null, "LocalityName": "Sheffield Centre", "StopType": "MET", "Status": "active", "TIPLOC": "SYCAS" }, "geometry": { "type": "Point", "coordinates": [ -1.46606353993, 53.383091504669999 ] } },
{ "type": "Feature", "properties": { "ATCOCode": "9400ZZSYCAT", "CommonName": "Cathedral (South Yorkshire Supertram)", "ShortCommonName": null, "LocalityName": "Sheffield Centre", "StopType": "MET", "Status": "active", "TIPLOC": "SYCAT" }, "geometry": { "type": "Point", "coordinates": [ -1.46904658503, 53.38258345741 ] } },
{ "type": "Feature", "properties": { "ATCOCode": "9400ZZSYCIR", "CommonName": "Cricket Inn Road (South Yorkshire Supertram)", "ShortCommonName": null, "LocalityName": "Park Hill", "StopType": "MET", "Status": "active", "TIPLOC": "SYCIR" }, "geometry": { "type": "Point", "coordinates": [ -1.44662772827, 53.384009778989999 ] } },
{ "type": "Feature", "properties": { "ATCOCode": "9400ZZSYCRB", "CommonName": "Carbrook (South Yorkshire Supertram)", "ShortCommonName": null, "LocalityName": "Carbrook", "StopType": "MET", "Status": "active", "TIPLOC": "SYCRB" }, "geometry": { "type": "Point", "coordinates": [ -1.41084949029, 53.405546378819999 ] } },
{ "type": "Feature", "properties": { "ATCOCode": "9400ZZSYCYH", "CommonName": "City Hall (South Yorkshire Supertram)", "ShortCommonName": null, "LocalityName": "Sheffield Centre", "StopType": "MET", "Status": "active", "TIPLOC": "SYCYH" }, "geometry": { "type": "Point", "coordinates": [ -1.47286024693, 53.381764399959998 ] } },
{ "type": "Feature", "properties": { "ATCOCode": "9400ZZSYDVS", "CommonName": "Arena/Olympic Legacy Park", "ShortCommonName": null, "LocalityName": "Don Valley", "StopType": "MET", "Status": "active", "TIPLOC": "SYDVS" }, "geometry": { "type": "Point", "coordinates": [ -1.42050095564, 53.398195894780002 ] } },
{ "type": "Feature", "properties": { "ATCOCode": "9400ZZSYFIZ", "CommonName": "Fitzalan Sq - Ponds Forge (S Yorks Supertram)", "ShortCommonName": null, "LocalityName": "Sheffield Centre", "StopType": "MET", "Status": "active", "TIPLOC": "SYFIZ" }, "geometry": { "type": "Point", "coordinates": [ -1.46388260682, 53.383171622920003 ] } },
{ "type": "Feature", "properties": { "ATCOCode": "9400ZZSYGRC", "CommonName": "Granville Rd - Sheffield College (Supertram)", "ShortCommonName": null, "LocalityName": "Park Hill", "StopType": "MET", "Status": "active", "TIPLOC": "SYGRC" }, "geometry": { "type": "Point", "coordinates": [ -1.46131736882, 53.374387108119997 ] } },
{ "type": "Feature", "properties": { "ATCOCode": "9400ZZSYHIL", "CommonName": "Hillsborough (South Yorkshire Supertram)", "ShortCommonName": null, "LocalityName": "Hillsborough", "StopType": "MET", "Status": "active", "TIPLOC": "SYHIL" }, "geometry": { "type": "Point", "coordinates": [ -1.49996912616, 53.402006582570003 ] } },
{ "type": "Feature", "properties": { "ATCOCode": "9400ZZSYHLP", "CommonName": "Hillsborough Park (South Yorkshire Supertram)", "ShortCommonName": null, "LocalityName": "Hillsborough", "StopType": "MET", "Status": "active", "TIPLOC": "SYHLP" }, "geometry": { "type": "Point", "coordinates": [ -1.50365627437, 53.404403948819997 ] } },
{ "type": "Feature", "properties": { "ATCOCode": "9400ZZSYHYP", "CommonName": "Hyde Park (South Yorkshire Supertram)", "ShortCommonName": null, "LocalityName": "Hyde Park", "StopType": "MET", "Status": "active", "TIPLOC": "SYHYP" }, "geometry": { "type": "Point", "coordinates": [ -1.45240810485, 53.384620683530002 ] } },
{ "type": "Feature", "properties": { "ATCOCode": "9400ZZSYINF", "CommonName": "Infirmary Road (South Yorkshire Supertram)", "ShortCommonName": null, "LocalityName": "Upperthorpe", "StopType": "MET", "Status": "active", "TIPLOC": "SYINF" }, "geometry": { "type": "Point", "coordinates": [ -1.48246134691, 53.390884954100002 ] } },
{ "type": "Feature", "properties": { "ATCOCode": "9400ZZSYLEP", "CommonName": "Leppings Lane (South Yorkshire Supertram)", "ShortCommonName": null, "LocalityName": "Hillsborough", "StopType": "MET", "Status": "active", "TIPLOC": "SYLEP" }, "geometry": { "type": "Point", "coordinates": [ -1.50421999423, 53.410257895359997 ] } },
{ "type": "Feature", "properties": { "ATCOCode": "9400ZZSYLPH", "CommonName": "Langsett - Primrose View (S Yorks Supertram)", "ShortCommonName": null, "LocalityName": "Langsett Road", "StopType": "MET", "Status": "active", "TIPLOC": "SYLPH" }, "geometry": { "type": "Point", "coordinates": [ -1.48934999614, 53.395759491669999 ] } },
{ "type": "Feature", "properties": { "ATCOCode": "9400ZZSYMAL", "CommonName": "Malin Bridge (South Yorkshire Supertram)", "ShortCommonName": null, "LocalityName": "Malin Bridge", "StopType": "MET", "Status": "active", "TIPLOC": "SYMAL" }, "geometry": { "type": "Point", "coordinates": [ -1.50830255541, 53.400620961830001 ] } },
{ "type": "Feature", "properties": { "ATCOCode": "9400ZZSYMHI", "CommonName": "Meadowhall Interchange (S Yorks Supertram)", "ShortCommonName": null, "LocalityName": "Meadowhall", "StopType": "MET", "Status": "active", "TIPLOC": "SYMHI" }, "geometry": { "type": "Point", "coordinates": [ -1.41271668115, 53.417420623060003 ] } },
{ "type": "Feature", "properties": { "ATCOCode": "9400ZZSYMHS", "CommonName": "Meadowhall South - Tinsley (S Yorks Supertram)", "ShortCommonName": null, "LocalityName": "Meadowhall", "StopType": "MET", "Status": "active", "TIPLOC": "SYMHS" }, "geometry": { "type": "Point", "coordinates": [ -1.40499730711, 53.414236397069999 ] } },
{ "type": "Feature", "properties": { "ATCOCode": "9400ZZSYMID", "CommonName": "Middlewood (South Yorkshire Supertram)", "ShortCommonName": null, "LocalityName": "Middlewood", "StopType": "MET", "Status": "active", "TIPLOC": "SYMID" }, "geometry": { "type": "Point", "coordinates": [ -1.51008275996, 53.415864017209998 ] } },
{ "type": "Feature", "properties": { "ATCOCode": "9400ZZSYNET", "CommonName": "Netherthorpe Road (South Yorkshire Supertram)", "ShortCommonName": null, "LocalityName": "Netherthorpe", "StopType": "MET", "Status": "active", "TIPLOC": "SYNET" }, "geometry": { "type": "Point", "coordinates": [ -1.4825209435, 53.384727966310003 ] } },
{ "type": "Feature", "properties": { "ATCOCode": "9400ZZSYNUN", "CommonName": "Nunnery Square (South Yorkshire Supertram)", "ShortCommonName": null, "LocalityName": "Attercliffe", "StopType": "MET", "Status": "active", "TIPLOC": "SYNUN" }, "geometry": { "type": "Point", "coordinates": [ -1.44176711222, 53.385506252619997 ] } },
{ "type": "Feature", "properties": { "ATCOCode": "9400ZZSYPAR", "CommonName": "Parkgate (South Yorkshire Supertram)", "ShortCommonName": null, "LocalityName": "Parkgate", "StopType": "MET", "Status": "active", "TIPLOC": "SYPAR" }, "geometry": { "type": "Point", "coordinates": [ -1.34336660467, 53.442973994760003 ] } },
{ "type": "Feature", "properties": { "ATCOCode": "9400ZZSYPGC", "CommonName": "Park Grange Croft (South Yorkshire Supertram)", "ShortCommonName": null, "LocalityName": "Norfolk Park", "StopType": "MET", "Status": "active", "TIPLOC": "SYPGC" }, "geometry": { "type": "Point", "coordinates": [ -1.45876876056, 53.370303699079997 ] } },
{ "type": "Feature", "properties": { "ATCOCode": "9400ZZSYPGR", "CommonName": "Park Grange (South Yorkshire Supertram)", "ShortCommonName": null, "LocalityName": "Norfolk Park", "StopType": "MET", "Status": "active", "TIPLOC": "SYPGR" }, "geometry": { "type": "Point", "coordinates": [ -1.45500688379, 53.367122562420001 ] } },
{ "type": "Feature", "properties": { "ATCOCode": "9400ZZSYRTH", "CommonName": "Rotherham Station (South Yorkshire Supertram)", "ShortCommonName": null, "LocalityName": "Rotherham", "StopType": "MET", "Status": "active", "TIPLOC": "SYRTH" }, "geometry": { "type": "Point", "coordinates": [ -1.36127481855, 53.43142173975 ] } },
{ "type": "Feature", "properties": { "ATCOCode": "9400ZZSYSHL", "CommonName": "Shalesmoor (South Yorkshire Supertram)", "ShortCommonName": null, "LocalityName": "Shalesmoor", "StopType": "MET", "Status": "active", "TIPLOC": "SYSHL" }, "geometry": { "type": "Point", "coordinates": [ -1.47793228534, 53.388672009270003 ] } },
{ "type": "Feature", "properties": { "ATCOCode": "9400ZZSYSHU", "CommonName": "Sheffield Stn - Hallam Uni (Supertram)", "ShortCommonName": null, "LocalityName": "Sheffield Centre", "StopType": "MET", "Status": "active", "TIPLOC": "SYSHU" }, "geometry": { "type": "Point", "coordinates": [ -1.46127383583, 53.377838575120002 ] } },
{ "type": "Feature", "properties": { "ATCOCode": "9400ZZSYSPL", "CommonName": "Spring Lane (South Yorkshire Supertram)", "ShortCommonName": null, "LocalityName": "Fairleigh", "StopType": "MET", "Status": "active", "TIPLOC": "SYSPL" }, "geometry": { "type": "Point", "coordinates": [ -1.43872715764, 53.366283119329999 ] } },
{ "type": "Feature", "properties": { "ATCOCode": "9400ZZSYUNI", "CommonName": "University of Sheffield (S Yorks Supertram)", "ShortCommonName": null, "LocalityName": "Western Bank", "StopType": "MET", "Status": "active", "TIPLOC": "SYUNI" }, "geometry": { "type": "Point", "coordinates": [ -1.48405815828, 53.380689706470001 ] } },
{ "type": "Feature", "properties": { "ATCOCode": "9400ZZSYVEN", "CommonName": "Valley Centertainment (S Yorks Supertram)", "ShortCommonName": null, "LocalityName": "Carbrook", "StopType": "MET", "Status": "active", "TIPLOC": "SYVEN" }, "geometry": { "type": "Point", "coordinates": [ -1.41267059509, 53.402193576629998 ] } },
{ "type": "Feature", "properties": { "ATCOCode": "9400ZZSYWBN", "CommonName": "Woodbourn Road (South Yorkshire Supertram)", "ShortCommonName": null, "LocalityName": "Attercliffe", "StopType": "MET", "Status": "active", "TIPLOC": "SYWBN" }, "geometry": { "type": "Point", "coordinates": [ -1.43455117566, 53.388852063400002 ] } },
{ "type": "Feature", "properties": { "ATCOCode": "9400ZZSYWTS", "CommonName": "West Street (South Yorkshire Supertram)", "ShortCommonName": null, "LocalityName": "Sheffield Centre", "StopType": "MET", "Status": "active", "TIPLOC": "SYWTS" }, "geometry": { "type": "Point", "coordinates": [ -1.47747532006, 53.380553226849997 ] } },
{ "type": "Feature", "properties": { "ATCOCode": "9400ZZWDBED", "CommonName": "Bedale (Wensleydale Railway)", "ShortCommonName": null, "LocalityName": "Bedale", "StopType": "MET", "Status": "active", "TIPLOC": "WDBED" }, "geometry": { "type": "Point", "coordinates": [ -1.58749963286, 54.289110303549997 ] } },
{ "type": "Feature", "properties": { "ATCOCode": "9400ZZWDFIN", "CommonName": "Finghall (Wensleydale Railway)", "ShortCommonName": null, "LocalityName": "Finghall", "StopType": "MET", "Status": "active", "TIPLOC": "WDFIN" }, "geometry": { "type": "Point", "coordinates": [ -1.71760932163, 54.305679823859997 ] } },
{ "type": "Feature", "properties": { "ATCOCode": "9400ZZWDLEE", "CommonName": "Leeming Bar (Wensleydale Railway)", "ShortCommonName": null, "LocalityName": "Leeming Bar", "StopType": "MET", "Status": "active", "TIPLOC": "WDLEE" }, "geometry": { "type": "Point", "coordinates": [ -1.56108819519, 54.30540995258 ] } },
{ "type": "Feature", "properties": { "ATCOCode": "9400ZZWDLEY", "CommonName": "Leyburn (Wensleydale Railway)", "ShortCommonName": null, "LocalityName": "Leyburn", "StopType": "MET", "Status": "active", "TIPLOC": "WDLEY" }, "geometry": { "type": "Point", "coordinates": [ -1.82071786027, 54.308204580050003 ] } },
{ "type": "Feature", "properties": { "ATCOCode": "9400ZZWDRED", "CommonName": "Redmire (Wensleydale Railway)", "ShortCommonName": null, "LocalityName": "Redmire", "StopType": "MET", "Status": "active", "TIPLOC": "WDRED" }, "geometry": { "type": "Point", "coordinates": [ -1.9285431241, 54.318993167480002 ] } }
]
}
